{"type":"FeatureCollection","features":[
    {"id":"1","arrondissement":"1","nom":"SAINT HONORE","ville":"Paris","code_postal":"75001","adresse":"10, rue St-Anne","telephone":"0142610326","lat":null,"lng":null},
    {"id":"2","arrondissement":"1","nom":"ROUSSEAU","ville":"Paris","code_postal":"75001","adresse":"21, rue du Jour","telephone":"0145083428","lat":null,"lng":null},
    {"id":"3","arrondissement":"4","nom":"SEVIGNE","ville":"Paris","code_postal":"75004","adresse":"7, rue de Sévigné","telephone":"0144615028","lat":null,"lng":null},
    {"id":"4","arrondissement":"5","nom":"POISSY","ville":"Paris","code_postal":"75005","adresse":"48-50, rue Cardinal Lemoine","telephone":"0143542615","lat":null,"lng":null},
    {"id":"5","arrondissement":"6","nom":"COLOMBIER","ville":"Paris","code_postal":"75006","adresse":"11, rue du Vieux Colombier","telephone":"0145485070","lat":null,"lng":null},
    {"id":"6","arrondissement":"6","nom":"LA MONNAIE","ville":"Paris","code_postal":"75006","adresse":"Face 11, quai de Conti","telephone":"0143546436","lat":null,"lng":null},
    {"id":"7","arrondissement":"7","nom":"MALAR","ville":"Paris","code_postal":"75007","adresse":"7, rue Malar","telephone":"0145550881","lat":null,"lng":null},
    {"id":"8","arrondissement":"9","nom":"BLANCHE","ville":"Paris","code_postal":"75009","adresse":"28, rue Blanche","telephone":"0140232028","lat":null,"lng":null},
    {"id":"9","arrondissement":"10","nom":"LANDON","ville":"Paris","code_postal":"75010","adresse":"12, rue Philippe de Girard","telephone":"0140355831","lat":null,"lng":null},
    {"id":"10","arrondissement":"10","nom":"CHATEAU D'EAU","ville":"Paris","code_postal":"75010","adresse":"50, rue de Château d'eau","telephone":"0140039828","lat":null,"lng":null},
    {"id":"11","arrondissement":"11","nom":"PARMENTIER","ville":"Paris","code_postal":"75011","adresse":"87, ave Parmentier","telephone":"0143572743","lat":null,"lng":null},
    {"id":"12","arrondissement":"12","nom":"CHALIGNY","ville":"Paris","code_postal":"75012","adresse":"26, rue de Chaligny","telephone":"0156061428","lat":null,"lng":null},
    {"id":"13","arrondissement":"12","nom":"NATIVITE","ville":"Paris","code_postal":"75012","adresse":"5, place Lachambaudie","telephone":"0143435465","lat":null,"lng":null},
    {"id":"14","arrondissement":"13","nom":"MASSENA","ville":"Paris","code_postal":"75013","adresse":"37, bld de Masséna","telephone":"0145838266","lat":null,"lng":null},
    {"id":"15","arrondissement":"13","nom":"PORT ROYAL","ville":"Paris","code_postal":"75013","adresse":"55, bld de Port-Royal","telephone":"0153552328","lat":null,"lng":null},
    {"id":"16","arrondissement":"14","nom":"PLAISANCE","ville":"Paris","code_postal":"75014","adresse":"45, ave Villemin","telephone":"0145435177","lat":null,"lng":null},
    {"id":"17","arrondissement":"15","nom":"GRENELLE","ville":"Paris","code_postal":"75015","adresse":"6, place Violet","telephone":"0156773428","lat":null,"lng":null},
    {"id":"18","arrondissement":"16","nom":"AUTEUIL","ville":"Paris","code_postal":"75016","adresse":"2-4, rue François Millet","telephone":"0142887620","lat":null,"lng":null},
    {"id":"19","arrondissement":"16","nom":"DAUPHINE","ville":"Paris","code_postal":"75016","adresse":"8, rue Ménil","telephone":"0145538468","lat":null,"lng":null},
    {"id":"20","arrondissement":"17","nom":"BOURSAULT","ville":"Paris","code_postal":"75017","adresse":"27, rue Boursault","telephone":"0145224313","lat":null,"lng":null},
    {"id":"21","arrondissement":"17","nom":"CHAMPERRET","ville":"Paris","code_postal":"75017","adresse":"3, bld de l'Yser","telephone":"0145724136","lat":null,"lng":null},
    {"id":"22","arrondissement":"18","nom":"MONTMARTRE","ville":"Paris","code_postal":"75018","adresse":"12, rue Carpeaux","telephone":"0142268328","lat":null,"lng":null},
    {"id":"23","arrondissement":"19","nom":"BITCHE","ville":"Paris","code_postal":"75019","adresse":"2, place Bitche","telephone":"0144659448","lat":null,"lng":null},
    {"id":"24","arrondissement":"20","nom":"MENILMONTANT","ville":"Paris","code_postal":"75020","adresse":"47, rue St-Fargeau","telephone":"0140314418","lat":null,"lng":null},
    {"id":"25","arrondissement":"20","nom":"CHARONNE","ville":"Paris","code_postal":"75020","adresse":"93, rue des Pyrénées","telephone":"0143715122","lat":null,"lng":null},
    {"id":"26","arrondissement":"92","nom":"CLICHY LA GARENNE","ville":"Clichy sur Seine","code_postal":"92110","adresse":"137, bld Jean Jaurès","telephone":"0147371474","lat":null,"lng":null},
    {"id":"27","arrondissement":"92","nom":"MONTROUGE","ville":"Montrouge","code_postal":"92120","adresse":"53, rue de la Vanne","telephone":"0158070528","lat":null,"lng":null},
    {"id":"28","arrondissement":"92","nom":"LEVALLOIS PERRET","ville":"Levallois-Perret","code_postal":"92300","adresse":"1 Ave Georges-Pompidou","telephone":"0147585116","lat":null,"lng":null},
    {"id":"29","arrondissement":"92","nom":"ISSY LES MOULINEAUX","ville":"Issy-les-Moulineaux","code_postal":"92130","adresse":"75, bld Gallieni","telephone":"0147099728","lat":null,"lng":null},
    {"id":"30","arrondissement":"92","nom":"BOULOGNE","ville":"Boulogne","code_postal":"92100","adresse":"55-57, rue Galliéni","telephone":"0146051286","lat":null,"lng":null},
    {"id":"31","arrondissement":"92","nom":"GARCHES","ville":"Garches","code_postal":"92380","adresse":"18, rue des Jardins","telephone":"0147412137","lat":null,"lng":null},
    {"id":"32","arrondissement":"92","nom":"MEUDON","ville":"Meudon","code_postal":"92190","adresse":"5, rue Charles","telephone":"0145340286","lat":null,"lng":null},
    {"id":"33","arrondissement":"92","nom":"SAINT CLOUD","ville":"Saint-Cloud","code_postal":"92210","adresse":"40, ave du Maréchal","telephone":"0155393928","lat":null,"lng":null},
    {"id":"34","arrondissement":"92","nom":"LE PLESSIS CLAMART","ville":"Clamart","code_postal":"92140","adresse":"287, ave du Général de Gaulle","telephone":"0140837428","lat":null,"lng":null},
    {"id":"35","arrondissement":"92","nom":"ANTONY","ville":"Antony","code_postal":"92160","adresse":"2, ave Armand Guillebeaud","telephone":"0146660990","lat":null,"lng":null},
    {"id":"36","arrondissement":"92","nom":"BOURG LA REINE","ville":"Bourd-la-Reine","code_postal":"92340","adresse":"20, rue Ravon","telephone":"0146630948","lat":null,"lng":null},
    {"id":"37","arrondissement":"92","nom":"CLAMART","ville":"Clamart","code_postal":"92140","adresse":"234, ave Victor","telephone":"0141097528","lat":null,"lng":null},
    {"id":"38","arrondissement":"92","nom":"GENNEVILLIERS","ville":"Gennevilliers","code_postal":"92230","adresse":"136-140, rue Henri Barbusse","telephone":"0147941814","lat":null,"lng":null},
    {"id":"39","arrondissement":"92","nom":"ASNIERE","ville":"Asnières sur Seine","code_postal":"92600","adresse":"4, rue du Cne Bossard","telephone":"0147997119","lat":null,"lng":null},
    {"id":"40","arrondissement":"92","nom":"COLOMBE","ville":"Colombes","code_postal":"92700","adresse":"20, rue Hoche","telephone":"0142420063","lat":null,"lng":null},
    {"id":"41","arrondissement":"92","nom":"GENNEVILLIERS PORT","ville":"Gennevilliers","code_postal":"92230","adresse":"19, rte principale du port","telephone":"0147947399","lat":null,"lng":null},
    {"id":"42","arrondissement":"92","nom":"PUTEAUX","ville":"Puteaux","code_postal":"92800","adresse":"106, rue de Verdun","telephone":"0158472928","lat":null,"lng":null},
    {"id":"43","arrondissement":"92","nom":"COURBEVOIE","ville":"Courbevoie","code_postal":"92400","adresse":"12-14, rue Henri Regnault","telephone":"0149047428","lat":null,"lng":null},
    {"id":"44","arrondissement":"92","nom":"NANTERRE","ville":"Nanterre","code_postal":"92000","adresse":"20, rue de Stalingrad","telephone":"0147212881","lat":null,"lng":null},
    {"id":"45","arrondissement":"92","nom":"RUEIL MALMAISON","ville":"Rueil-Malmaison","code_postal":"92500","adresse":"112, rte de l'Empereur","telephone":"0147494709","lat":null,"lng":null},
    {"id":"46","arrondissement":"92","nom":"SEVRES","ville":"Sèvres","code_postal":"92310","adresse":"15, rue de Fréville le vingt","telephone":"0145340579","lat":null,"lng":null},
    {"id":"47","arrondissement":"93","nom":"SAINT OUEN","ville":"Saint-Ouen","code_postal":"93400","adresse":"89, rue du Dc Bauer","telephone":"0141664928","lat":null,"lng":null},
    {"id":"48","arrondissement":"93","nom":"PANTIN","ville":"Pantin","code_postal":"93500","adresse":"93-95, rue du Cartier Bresson","telephone":"0148456041","lat":null,"lng":null},
    {"id":"49","arrondissement":"93","nom":"AULNAY SOUS BOIS","ville":"Aulnay-sous-Bois","code_postal":"93600","adresse":"156, rte de Mitry","telephone":"0141528128","lat":null,"lng":null},
    {"id":"50","arrondissement":"93","nom":"LE BLANC MESNIL","ville":"Blanc-Mesnil","code_postal":"93150","adresse":"76, ave Aristide Briand","telephone":"0148674289","lat":null,"lng":null},
    {"id":"51","arrondissement":"93","nom":"DRANCY","ville":"Drancy","code_postal":"93700","adresse":"19-21, rue Roger Salengro","telephone":"0148320264","lat":null,"lng":null},
    {"id":"52","arrondissement":"93","nom":"TREMBLAY EN FRANCE","ville":"Tremblay-en-France","code_postal":"93290","adresse":"chemin des Vaches","telephone":"0148606110","lat":null,"lng":null},
    {"id":"53","arrondissement":"93","nom":"CLICHY SOUS BOIS","ville":"Clichy-sous-Bois","code_postal":"93390","adresse":"2, al du Chêne Pointu","telephone":"0145097928","lat":null,"lng":null},
    {"id":"54","arrondissement":"93","nom":"BONDY","ville":"Bondy","code_postal":"93140","adresse":"6-8, ave de Verdun","telephone":"0141555428","lat":null,"lng":null},
    {"id":"55","arrondissement":"93","nom":"LIVRY GARGAN","ville":"Livry-Gargan","code_postal":"93190","adresse":"43, ave Voltaire","telephone":"0143835826","lat":null,"lng":null},
    {"id":"56","arrondissement":"93","nom":"MONTREUIL","ville":"Montreuil","code_postal":"93105","adresse":"11, ave Pasteur","telephone":"0141582428","lat":null,"lng":null},
    {"id":"57","arrondissement":"93","nom":"NEUILLY SUR MARNE","ville":"Neuilly-sur-Marne","code_postal":"93330","adresse":"9, ave du Perche ","telephone":"0143081434","lat":null,"lng":null},
    {"id":"58","arrondissement":"93","nom":"VILLEMONBLE","ville":"Villemonble","code_postal":"93250","adresse":"1, rue des Haies","telephone":"0145287306","lat":null,"lng":null},
    {"id":"59","arrondissement":"93","nom":"SAINT DENIS","ville":"Saint-Denis","code_postal":"93200","adresse":"Fort de la Briche","telephone":"0148138528","lat":null,"lng":null},
    {"id":"60","arrondissement":"93","nom":"AUBERVILLIERS","ville":"Aubervilliers","code_postal":"93300","adresse":"47-49, rue de la commune de Paris","telephone":"0149377428","lat":null,"lng":null},
    {"id":"61","arrondissement":"93","nom":"LA COURNEUVE","ville":"La Courneuve","code_postal":"93120","adresse":"24, rue de la Convention","telephone":"0149928418","lat":null,"lng":null},
    {"id":"62","arrondissement":"93","nom":"PIERREFITTE","ville":"Pierrefitte","code_postal":"93380","adresse":"3-5, rue Etienne Dollet","telephone":"0149715408","lat":null,"lng":null},
    {"id":"63","arrondissement":"93","nom":"NOISY LE GRAND","ville":"Noisy-le-Grand","code_postal":"93160","adresse":"1-5, ave Médéric","telephone":"0155851528","lat":null,"lng":null},
    {"id":"64","arrondissement":"94","nom":"VINCENNES","ville":"Vincennes","code_postal":"94300","adresse":"2, rue de l'Eglise","telephone":"0158641328","lat":null,"lng":null},
    {"id":"65","arrondissement":"94","nom":"IVRY SUR SEINE","ville":"Ivry-sur-Seine","code_postal":"94200","adresse":"1, place de l'Hôtel de Ville","telephone":"0146726434","lat":null,"lng":null},
    {"id":"66","arrondissement":"94","nom":"CHAMPIGNY SUR MARNE","ville":"Champigny-sur-Manre","code_postal":"94500","adresse":"16, rue de Dunkerque","telephone":"0155985528","lat":null,"lng":null},
    {"id":"67","arrondissement":"94","nom":"NOGENT SUR MARNE","ville":"Nogent-sur-Marne","code_postal":"94130","adresse":"108 bis, gd rue Charles de Gaulle","telephone":"0153991528","lat":null,"lng":null},
    {"id":"68","arrondissement":"94","nom":"CRETEIL","ville":"Créteil","code_postal":"94000","adresse":"10-18, rue de l'Orme St-Simon","telephone":"0149802817","lat":null,"lng":null},
    {"id":"69","arrondissement":"94","nom":"JOINVILLE LE PONT","ville":"Joinville-le-Pont","code_postal":"94340","adresse":"16, rue de Paris","telephone":"0148833490","lat":null,"lng":null},
    {"id":"70","arrondissement":"94","nom":"MAISON ALFORT","ville":"Maison-Alfort","code_postal":"94700","adresse":"4-6 rue Pasteur","telephone":"0143783204","lat":null,"lng":null},
    {"id":"71","arrondissement":"94","nom":"VILLENEUVE SAINT GEORGES","ville":"Villeneuve Saint Georges","code_postal":"94190","adresse":"97, ave Anatole France","telephone":"0143890391","lat":null,"lng":null},
    {"id":"72","arrondissement":"94","nom":"RUNGIS","ville":"Chevilly-Larue","code_postal":"94669","adresse":"382, ave de Stalingrad","telephone":"0146869010","lat":null,"lng":null},
    {"id":"73","arrondissement":"94","nom":"CHOISY LE ROI","ville":"Choisy-le-Roi","code_postal":"94600","adresse":"56-58, rue Jules Valès","telephone":"0148523340","lat":null,"lng":null},
    {"id":"74","arrondissement":"94","nom":"VILLEJUIF","ville":"Villejuif","code_postal":"94800","adresse":"46-48, ave de Verdun","telephone":"0147261819","lat":null,"lng":null},
    {"id":"75","arrondissement":"94","nom":"VITRY SUR SEINE","ville":"Vitry-sur-Seine","code_postal":"94400","adresse":"2, rue de Meissen","telephone":"0146803239","lat":null,"lng":null},
    {"id":"76","arrondissement":"94","nom":"SAINT MAUR","ville":"Saint-Maur","code_postal":"94100","adresse":"17, ave Louis Blanc","telephone":"0148838746","lat":null,"lng":null},
    {"id":"77","arrondissement":"94","nom":"SUCY EN BRIE","ville":"Sucy-en-Brie","code_postal":"94370","adresse":"13, place de l'Eglise","telephone":"0145901140","lat":null,"lng":null},
    {"id":"78","arrondissement":"94","nom":"VILCRESNES","ville":"Vilcresnes","code_postal":"94440","adresse":"69, rue des Mandres","telephone":"0145989033","lat":null,"lng":null}
]}