{"type":"FeatureCollection","features":[
{"type":"Feature","geometry":{"type":"Point","coordinates":[2.34015948652199,48.8570983434617]},"properties":{"CS":"MONN","DENO_CS":"LA MONNAIE","GRPT":3,"CIE":4,"TEL_VILLE":"01 43 54 64 36","TEL_FEU":"01 43 54 89 10","TEL_AUTO":"35 041","ADRESSE":"Face 11 quai Conti 75006 Paris","PC_CIE":"0","EM_GRPT":"0"}},
{"type":"Feature","geometry":{"type":"Point","coordinates":[2.33271409791027,48.8785745152848]},"properties":{"CS":"BLAN","DENO_CS":"BLANCHE","GRPT":1,"CIE":7,"TEL_VILLE":"01 40 23 20 28","TEL_FEU":"01 48 74 56 20","TEL_AUTO":"35 070","ADRESSE":"28 rue Blanche 75009 Paris","PC_CIE":"1","EM_GRPT":"0"}},
{"type":"Feature","geometry":{"type":"Point","coordinates":[2.56969873248496,48.9657125289943]},"properties":{"CS":"TREM","DENO_CS":"TREMBLAY-EN-FRANCE","GRPT":1,"CIE":13,"TEL_VILLE":"01 48 60 61 10","TEL_FEU":"01 48 60 69 48","TEL_AUTO":"35 133","ADRESSE":"Sn chemin des Vaches 93290 Tremblay","PC_CIE":"0","EM_GRPT":"0"}},
{"type":"Feature","geometry":{"type":"Point","coordinates":[2.54744213526183,48.9306594717994]},"properties":{"CS":"LIVR","DENO_CS":"LIVRY-GARGAN","GRPT":1,"CIE":14,"TEL_VILLE":"01 43 83 58 26","TEL_FEU":"01 48 83 56 40","TEL_AUTO":"35 142","ADRESSE":"43 ave Voltaire 93190 Livry-Gargan","PC_CIE":"0","EM_GRPT":"0"}},
{"type":"Feature","geometry":{"type":"Point","coordinates":[2.54277795535175,48.9048233544909]},"properties":{"CS":"CLIC","DENO_CS":"CLICHY-SOUS-BOIS","GRPT":1,"CIE":14,"TEL_VILLE":"01 45 09 40 10","TEL_FEU":"01 45 09 40 00","TEL_AUTO":"35 140","ADRESSE":"2 al du Chne Pointu 93390 Clichy/Bois","PC_CIE":"1","EM_GRPT":"0"}},
{"type":"Feature","geometry":{"type":"Point","coordinates":[2.52391198399001,48.8532051736015]},"properties":{"CS":"NEUI","DENO_CS":"NEUILLY-SUR-MARNE","GRPT":1,"CIE":24,"TEL_VILLE":"01 43 08 14 34","TEL_FEU":"01 43 08 09 41","TEL_AUTO":"35 241","ADRESSE":"9 ave du Perche 93330 Neuilly/Marne","PC_CIE":"0","EM_GRPT":"0"}},
{"type":"Feature","geometry":{"type":"Point","coordinates":[2.43991854432944,48.8640657598817]},"properties":{"CS":"MTRL","DENO_CS":"MONTREUIL","GRPT":1,"CIE":24,"TEL_VILLE":"01 42 87 20 31","TEL_FEU":"01 42 87 00 02","TEL_AUTO":"35 240","ADRESSE":"11 ave Pasteur 93105 Montreuil/Bois","PC_CIE":"1","EM_GRPT":"0"}},
{"type":"Feature","geometry":{"type":"Point","coordinates":[2.49054508016013,48.9051696812195]},"properties":{"CS":"BOND","DENO_CS":"BONDY","GRPT":1,"CIE":14,"TEL_VILLE":"01 41 55 54 28","TEL_FEU":"01 48 47 01 33","TEL_AUTO":"35 141","ADRESSE":"6-8 ave de Verdun 93140 Bondy","PC_CIE":"0","EM_GRPT":"0"}},
{"type":"Feature","geometry":{"type":"Point","coordinates":[2.36675698071759,48.9659937969424]},"properties":{"CS":"PIER","DENO_CS":"PIERREFITTE","GRPT":1,"CIE":26,"TEL_VILLE":"01 49 71 54 08","TEL_FEU":"01 48 26 43 65","TEL_AUTO":"35 263","ADRESSE":"3-5 rue Etienne Dollet 93380 Pierrefitte","PC_CIE":"0","EM_GRPT":"0"}},
{"type":"Feature","geometry":{"type":"Point","coordinates":[2.51465971716309,48.9481447734854]},"properties":{"CS":"AULN","DENO_CS":"AULNAY-SOUS-BOIS","GRPT":1,"CIE":13,"TEL_VILLE":"01 43 83 53 33","TEL_FEU":"01 48 83 76 28","TEL_AUTO":"35 130","ADRESSE":"156 rte de Mitry 93600 Aulnay","PC_CIE":"1","EM_GRPT":"0"}},
{"type":"Feature","geometry":{"type":"Point","coordinates":[2.44448349688955,48.9432661837279]},"properties":{"CS":"BLME","DENO_CS":"BLANC MENIL","GRPT":1,"CIE":13,"TEL_VILLE":"01 48 67 42 89","TEL_FEU":"01 48 67 32 80","TEL_AUTO":"35 131","ADRESSE":"76 ave Aristide Briand 93150 Blanc-Mesnil","PC_CIE":"0","EM_GRPT":"0"}},
{"type":"Feature","geometry":{"type":"Point","coordinates":[2.44084531639901,48.9204570780292]},"properties":{"CS":"DRAN","DENO_CS":"DRANCY","GRPT":1,"CIE":13,"TEL_VILLE":"01 48 32 02 64","TEL_FEU":"01 48 32 02 63","TEL_AUTO":"35 132","ADRESSE":"19-21 rue Roger Salengro 93700 Drancy","PC_CIE":"0","EM_GRPT":"0"}},
{"type":"Feature","geometry":{"type":"Point","coordinates":[2.38889254340473,48.9287084496505]},"properties":{"CS":"LACO","DENO_CS":"LA COURNEUVE","GRPT":1,"CIE":26,"TEL_VILLE":"01 48 36 32 64","TEL_FEU":"01 48 36 32 61","TEL_AUTO":"35 262","ADRESSE":"24 rue de la Convention 93120 La Courneuve","PC_CIE":"0","EM_GRPT":"0"}},
{"type":"Feature","geometry":{"type":"Point","coordinates":[2.40800634306441,48.8992151623036]},"properties":{"CS":"PANT","DENO_CS":"PANTIN","GRPT":1,"CIE":10,"TEL_VILLE":"01 48 45 60 41","TEL_FEU":"01 48 45 06 37","TEL_AUTO":"35 102","ADRESSE":"93-95 rue du Cartier Bresson 93500 Pantin","PC_CIE":"0","EM_GRPT":"0"}},
{"type":"Feature","geometry":{"type":"Point","coordinates":[2.38143758931089,48.9109243955145]},"properties":{"CS":"AUBE","DENO_CS":"AUBERVILLIERS","GRPT":1,"CIE":26,"TEL_VILLE":"01 48 33 72 11","TEL_FEU":"01 48 52 03 42","TEL_AUTO":"35 261","ADRESSE":"47-49 rue de la commune de Paris 93300 Aubervilliers","PC_CIE":"0","EM_GRPT":"0"}},
{"type":"Feature","geometry":{"type":"Point","coordinates":[2.34135771072871,48.945207840648]},"properties":{"CS":"STDE","DENO_CS":"SAINT DENIS","GRPT":1,"CIE":26,"TEL_VILLE":"01 48 13 85 28","TEL_FEU":"01 48 13 85 18","TEL_AUTO":"35 260","ADRESSE":"Fort de la Briche Che du Fort de la Briche 93200 Saint-Denis","PC_CIE":"1","EM_GRPT":"0"}},
{"type":"Feature","geometry":{"type":"Point","coordinates":[2.34152916875432,48.9082216304268]},"properties":{"CS":"STOU","DENO_CS":"SAINT OUEN","GRPT":1,"CIE":9,"TEL_VILLE":"01 41 66 49 28","TEL_FEU":"01 40 11 12 56","TEL_AUTO":"35 093","ADRESSE":"89 rue du Dc Bauer 93400 Saint-Ouen","PC_CIE":"0","EM_GRPT":"0"}},
{"type":"Feature","geometry":{"type":"Point","coordinates":[2.30203708351913,48.9298610016064]},"properties":{"CS":"GENN","DENO_CS":"GENNEVILLIERS","GRPT":3,"CIE":27,"TEL_VILLE":"01 47 94 18 14","TEL_FEU":"01 47 94 38 94","TEL_AUTO":"35 270","ADRESSE":"136-140 rue Henri Barbusse 92230 Gennevilliers","PC_CIE":"1","EM_GRPT":"0"}},
{"type":"Feature","geometry":{"type":"Point","coordinates":[2.28513668035338,48.9237570735028]},"properties":{"CS":"ASNI","DENO_CS":"ASNIERES","GRPT":3,"CIE":27,"TEL_VILLE":"01 47 99 71 19","TEL_FEU":"01 47 99 05 01","TEL_AUTO":"35 271","ADRESSE":"4 rue du Cne Bossard 92600 Asnires","PC_CIE":"0","EM_GRPT":"0"}},
{"type":"Feature","geometry":{"type":"Point","coordinates":[2.26255058162937,48.9227582102337]},"properties":{"CS":"COBE","DENO_CS":"COLOMBES","GRPT":3,"CIE":27,"TEL_VILLE":"01 42 42 00 63","TEL_FEU":"01 42 42 14 56","TEL_AUTO":"35 272","ADRESSE":"20 rue Hoche 92700 Colombes","PC_CIE":"0","EM_GRPT":"0"}},
{"type":"Feature","geometry":{"type":"Point","coordinates":[2.30660191076188,48.8616025805901]},"properties":{"CS":"MALA","DENO_CS":"MALAR","GRPT":3,"CIE":4,"TEL_VILLE":"01 45 55 08 81","TEL_FEU":"01 47 05 41 99","TEL_AUTO":"35 042","ADRESSE":"7 rue Malar 75007 Paris","PC_CIE":"0","EM_GRPT":"0"}},
{"type":"Feature","geometry":{"type":"Point","coordinates":[2.38060231030914,48.8892152764077]},"properties":{"CS":"BITC","DENO_CS":"BITCHE","GRPT":1,"CIE":10,"TEL_VILLE":"01 44 65 94 48","TEL_FEU":"01 40 36 86 03","TEL_AUTO":"35 101","ADRESSE":"2 place Bitche 75019 Paris","PC_CIE":"0","EM_GRPT":"0"}},
{"type":"Feature","geometry":{"type":"Point","coordinates":[2.36931465914017,48.8816663035711]},"properties":{"CS":"LAND","DENO_CS":"LANDON","GRPT":1,"CIE":10,"TEL_VILLE":"01 40 35 58 31","TEL_FEU":"01 40 35 74 58","TEL_AUTO":"35 100","ADRESSE":"QUAI DE VALMY","PC_CIE":"1","EM_GRPT":"0"}},
{"type":"Feature","geometry":{"type":"Point","coordinates":[2.3334072512991,48.891143583528]},"properties":{"CS":"MTMA","DENO_CS":"MONTMARTRE","GRPT":1,"CIE":9,"TEL_VILLE":"01 42 26 83 28","TEL_FEU":"01 46 27 35 55","TEL_AUTO":"35 090","ADRESSE":"12 rue Carpeaux 75018 Paris","PC_CIE":"1","EM_GRPT":"1"}},
{"type":"Feature","geometry":{"type":"Point","coordinates":[2.32029467976751,48.8840156247904]},"properties":{"CS":"BSLT","DENO_CS":"BOURSAULT","GRPT":1,"CIE":9,"TEL_VILLE":"01 45 22 43 13","TEL_FEU":"01 45 22 36 77","TEL_AUTO":"35 091","ADRESSE":"27 rue Boursault 75017 Paris","PC_CIE":"0","EM_GRPT":"0"}},
{"type":"Feature","geometry":{"type":"Point","coordinates":[2.28483989248523,48.8685407579954]},"properties":{"CS":"DAUP","DENO_CS":"DAUPHINE","GRPT":3,"CIE":5,"TEL_VILLE":"01 45 53 84 68","TEL_FEU":"01 45 53 80 11","TEL_AUTO":"35 051","ADRESSE":"8 rue Mnil 75016 Paris","PC_CIE":"0","EM_GRPT":"0"}},
{"type":"Feature","geometry":{"type":"Point","coordinates":[2.27381308222395,48.850783723489]},"properties":{"CS":"AUTE","DENO_CS":"AUTEUIL","GRPT":3,"CIE":6,"TEL_VILLE":"01 42 88 76 20","TEL_FEU":"01 42 88 51 81","TEL_AUTO":"35 061","ADRESSE":"2-4 rue Franois Millet 75016 Paris","PC_CIE":"0","EM_GRPT":"0"}},
{"type":"Feature","geometry":{"type":"Point","coordinates":[2.40462708774237,48.8719320261021]},"properties":{"CS":"MENI","DENO_CS":"MENILMONTANT","GRPT":1,"CIE":12,"TEL_VILLE":"01 40 31 44 18","TEL_FEU":"01 40 31 72 47","TEL_AUTO":"35 120","ADRESSE":"47 rue St-Fargeau 75020 Paris","PC_CIE":"1","EM_GRPT":"0"}},
{"type":"Feature","geometry":{"type":"Point","coordinates":[2.40595878782958,48.8548089179347]},"properties":{"CS":"CHAR","DENO_CS":"CHARONNE","GRPT":1,"CIE":12,"TEL_VILLE":"01 43 71 51 22","TEL_FEU":"01 43 71 53 66","TEL_AUTO":"35 121","ADRESSE":"93 rue des Pyrnes 75020 Paris","PC_CIE":"0","EM_GRPT":"0"}},
{"type":"Feature","geometry":{"type":"Point","coordinates":[2.37453722054566,48.8659051793728]},"properties":{"CS":"PARM","DENO_CS":"PARMENTIER","GRPT":1,"CIE":11,"TEL_VILLE":"01 43 57 27 43","TEL_FEU":"01 43 57 58 69","TEL_AUTO":"35 111","ADRESSE":"87 ave Parmentier 75011 Paris","PC_CIE":"0","EM_GRPT":"0"}},
{"type":"Feature","geometry":{"type":"Point","coordinates":[2.3592529188945,48.8713913070796]},"properties":{"CS":"CHTO","DENO_CS":"CHATEAU D'EAU","GRPT":1,"CIE":8,"TEL_VILLE":"01 40 03 98 28","TEL_FEU":"01 40 40 03 33","TEL_AUTO":"35 081","ADRESSE":"50 rue de Chteau-d'Eau 75010 Paris","PC_CIE":"0","EM_GRPT":"0"}},
{"type":"Feature","geometry":{"type":"Point","coordinates":[2.38520152426712,48.8475300050669]},"properties":{"CS":"CHLY","DENO_CS":"CHALIGNY","GRPT":2,"CIE":1,"TEL_VILLE":"01 43 72 55 75","TEL_FEU":"01 43 72 51 52","TEL_AUTO":"35 010","ADRESSE":"26 rue de Chaligny 75012 Paris","PC_CIE":"1","EM_GRPT":"0"}},
{"type":"Feature","geometry":{"type":"Point","coordinates":[2.29091629499251,48.8442245772146]},"properties":{"CS":"GREN","DENO_CS":"GRENELLE","GRPT":3,"CIE":6,"TEL_VILLE":"01 45 78 77 07","TEL_FEU":"01 45 78 74 52","TEL_AUTO":"35 060","ADRESSE":"6 place Violet 75015 Paris","PC_CIE":"1","EM_GRPT":"0"}},
{"type":"Feature","geometry":{"type":"Point","coordinates":[2.3186319852541,48.8312113260446]},"properties":{"CS":"PLAI","DENO_CS":"PLAISANCE","GRPT":3,"CIE":3,"TEL_VILLE":"01 45 43 51 77","TEL_FEU":"01 45 43 00 51","TEL_AUTO":"35 032","ADRESSE":"45 ave Villemin 75014 Paris","PC_CIE":"0","EM_GRPT":"0"}},
{"type":"Feature","geometry":{"type":"Point","coordinates":[2.34470902066314,48.8375441998874]},"properties":{"CS":"PROY","DENO_CS":"PORT ROYAL","GRPT":3,"CIE":3,"TEL_VILLE":"01 53 55 23 28","TEL_FEU":"01 45 35 18 18","TEL_AUTO":"35 030","ADRESSE":"55 bld de Port-Royal 75013 Paris","PC_CIE":"1","EM_GRPT":"0"}},
{"type":"Feature","geometry":{"type":"Point","coordinates":[2.28903895964676,48.8849388267261]},"properties":{"CS":"CHPT","DENO_CS":"CHAMPERRET","GRPT":3,"CIE":5,"TEL_VILLE":"01 45 72 41 36","TEL_FEU":"01 45 72 30 65","TEL_AUTO":"35 050","ADRESSE":"3 bld de l'Yser 75017 Paris","PC_CIE":"1","EM_GRPT":"0"}},
{"type":"Feature","geometry":{"type":"Point","coordinates":[2.35193085885444,48.8466222081375]},"properties":{"CS":"POIS","DENO_CS":"POISSY","GRPT":2,"CIE":2,"TEL_VILLE":"01 43 54 26 15","TEL_FEU":"01 43 54 41 64","TEL_AUTO":"35 022","ADRESSE":"48-50 rue Cardinal Lemoine 75005 Paris","PC_CIE":"0","EM_GRPT":"0"}},
{"type":"Feature","geometry":{"type":"Point","coordinates":[2.33218772338673,48.8511293584918]},"properties":{"CS":"COBI","DENO_CS":"COLOMBIER","GRPT":3,"CIE":4,"TEL_VILLE":"01 45 48 50 70","TEL_FEU":"01 45 48 32 90","TEL_AUTO":"35 040","ADRESSE":"11 rue du Vieux Colombier 75006 Paris","PC_CIE":"1","EM_GRPT":"0"}},
{"type":"Feature","geometry":{"type":"Point","coordinates":[2.3453483803394,48.8643163530887]},"properties":{"CS":"ROUS","DENO_CS":"ROUSSEAU","GRPT":2,"CIE":8,"TEL_VILLE":"01 42 36 55 49","TEL_FEU":"01 42 36 60 03","TEL_AUTO":"35 080","ADRESSE":"21 rue du Jour 75001 Paris","PC_CIE":"1","EM_GRPT":"0"}},
{"type":"Feature","geometry":{"type":"Point","coordinates":[2.36261456083863,48.8559841961222]},"properties":{"CS":"SEVI","DENO_CS":"SEVIGNE","GRPT":2,"CIE":11,"TEL_VILLE":"01 44 61 50 28","TEL_FEU":"01 42 72 17 84","TEL_AUTO":"35 110","ADRESSE":"7 rue de Svign 75004 Paris","PC_CIE":"1","EM_GRPT":"0"}},
{"type":"Feature","geometry":{"type":"Point","coordinates":[2.33620877238974,48.8658264192512]},"properties":{"CS":"STHO","DENO_CS":"SAINT HONORE","GRPT":1,"CIE":7,"TEL_VILLE":"01 42 61 03 26","TEL_FEU":"01 42 61 03 93","TEL_AUTO":"35 071","ADRESSE":"10 rue St-Anne 75001 Paris","PC_CIE":"0","EM_GRPT":"0"}},
{"type":"Feature","geometry":{"type":"Point","coordinates":[2.27830657720399,48.8975499669861]},"properties":{"CS":"LEVA","DENO_CS":"LEVALLOIS-PERRET","GRPT":3,"CIE":5,"TEL_VILLE":"01 47 58 51 16","TEL_FEU":"01 47 58 51 14","TEL_AUTO":"35 052","ADRESSE":"1 Avenue Georges Pompidou Leva","PC_CIE":"0","EM_GRPT":"0"}},
{"type":"Feature","geometry":{"type":"Point","coordinates":[2.24500485699017,48.8927501493795]},"properties":{"CS":"CBVE","DENO_CS":"COURBEVOIE-LA-DEFENSE","GRPT":3,"CIE":28,"TEL_VILLE":"01 49 04 74 28","TEL_FEU":"01 43 33 01 20","TEL_AUTO":"35 281","ADRESSE":"12-14 rue Henri Rgnault 92400 Courbevoie","PC_CIE":"0","EM_GRPT":"1"}},
{"type":"Feature","geometry":{"type":"Point","coordinates":[2.20260567699357,48.8997864578069]},"properties":{"CS":"NANT","DENO_CS":"NANTERRE","GRPT":3,"CIE":28,"TEL_VILLE":"01 41 91 54 28","TEL_FEU":"01 47 21 23 79","TEL_AUTO":"35 282","ADRESSE":"8 RUE DE L INDUSTRIE","PC_CIE":"0","EM_GRPT":"0"}},
{"type":"Feature","geometry":{"type":"Point","coordinates":[2.17938311128164,48.8650064032031]},"properties":{"CS":"RUEI","DENO_CS":"RUEIL-MALMAISON","GRPT":3,"CIE":28,"TEL_VILLE":"01 47 49 47 09","TEL_FEU":"01 47 49 18 18","TEL_AUTO":"35 283","ADRESSE":"112 rte de l'Empereur 92500 Rueil-Malmaison","PC_CIE":"0","EM_GRPT":"0"}},
{"type":"Feature","geometry":{"type":"Point","coordinates":[2.19554616469979,48.8448831826799]},"properties":{"CS":"GARC","DENO_CS":"GARCHE","GRPT":3,"CIE":16,"TEL_VILLE":"01 47 41 21 37","TEL_FEU":"01 47 41 05 36","TEL_AUTO":"35 161","ADRESSE":"18 rue des Jardins 92380 Garches","PC_CIE":"0","EM_GRPT":"0"}},
{"type":"Feature","geometry":{"type":"Point","coordinates":[2.21094358353349,48.8477731023841]},"properties":{"CS":"STCL","DENO_CS":"SAINT CLOUD","GRPT":3,"CIE":16,"TEL_VILLE":"01 55 39 39 28","TEL_FEU":"01 47 71 05 20","TEL_AUTO":"35 163","ADRESSE":"40 ave du Marchal Foch 92210 St-Cloud","PC_CIE":"0","EM_GRPT":"0"}},
{"type":"Feature","geometry":{"type":"Point","coordinates":[2.20610542933376,48.8236379898611]},"properties":{"CS":"SEVR","DENO_CS":"SEVRES","GRPT":3,"CIE":16,"TEL_VILLE":"01 45 34 05 79","TEL_FEU":"01 45 34 08 71","TEL_AUTO":"35 164","ADRESSE":"15 rue de Frville le vingt 92310 Svres","PC_CIE":"0","EM_GRPT":"0"}},
{"type":"Feature","geometry":{"type":"Point","coordinates":[2.23767797128994,48.8111357157834]},"properties":{"CS":"MEUD","DENO_CS":"MEUDON","GRPT":3,"CIE":16,"TEL_VILLE":"01 45 34 02 86","TEL_FEU":"01 45 34 16 06","TEL_AUTO":"35 162","ADRESSE":"5 rue Charles Liot 92190 Meudon","PC_CIE":"0","EM_GRPT":"0"}},
{"type":"Feature","geometry":{"type":"Point","coordinates":[2.24847691505129,48.8374568045195]},"properties":{"CS":"BOUL","DENO_CS":"BOULOGNE","GRPT":3,"CIE":16,"TEL_VILLE":"01 46 21 01 15","TEL_FEU":"01 46 05 12 86","TEL_AUTO":"35 160","ADRESSE":"55-57 rue Gallini 92100 Boulogne","PC_CIE":"1","EM_GRPT":"0"}},
{"type":"Feature","geometry":{"type":"Point","coordinates":[2.26888689423819,48.8239765958615]},"properties":{"CS":"ISSY","DENO_CS":"ISSY-LES-MOULINEAUX","GRPT":3,"CIE":6,"TEL_VILLE":"01 46 42 04 04","TEL_FEU":"01 46 42 33 24","TEL_AUTO":"35 062","ADRESSE":"75 bld Gallini 92130 Issy-les-Moulineaux","PC_CIE":"0","EM_GRPT":"0"}},
{"type":"Feature","geometry":{"type":"Point","coordinates":[2.27364752659353,48.8118514934538]},"properties":{"CS":"CLAM","DENO_CS":"CLAMART","GRPT":3,"CIE":21,"TEL_VILLE":"01 41 09 75 28","TEL_FEU":"01 46 41 02 86","TEL_AUTO":"35 213","ADRESSE":"234 ave Victor Hugo 92140 Clamart","PC_CIE":"0","EM_GRPT":"0"}},
{"type":"Feature","geometry":{"type":"Point","coordinates":[2.2518830222035,48.7851914697162]},"properties":{"CS":"PLCL","DENO_CS":"PLESSIS-CLAMART","GRPT":3,"CIE":21,"TEL_VILLE":"01 46 32 06 76","TEL_FEU":"01 46 31 18 18","TEL_AUTO":"35 210","ADRESSE":"287 ave du Gnral de Gaulle 92140 Clamart","PC_CIE":"1","EM_GRPT":"0"}},
{"type":"Feature","geometry":{"type":"Point","coordinates":[2.32887330926533,48.8130491535623]},"properties":{"CS":"MTGE","DENO_CS":"MONTROUGE","GRPT":3,"CIE":3,"TEL_VILLE":"01 58 07 05 28","TEL_FEU":"01 46 56 18 18","TEL_AUTO":"35 031","ADRESSE":"53 rue de la Vanne 92120 Montrouge","PC_CIE":"0","EM_GRPT":"0"}},
{"type":"Feature","geometry":{"type":"Point","coordinates":[2.31996118001607,48.7789770039564]},"properties":{"CS":"BGLR","DENO_CS":"BOURG-LA-REINE","GRPT":3,"CIE":21,"TEL_VILLE":"01 46 63 09 48","TEL_FEU":"01 47 02 09 38","TEL_AUTO":"35 212","ADRESSE":"20 rue Ravon 92340 Bourg-la-Reine","PC_CIE":"0","EM_GRPT":"0"}},
{"type":"Feature","geometry":{"type":"Point","coordinates":[2.30511935120737,48.7491139141845]},"properties":{"CS":"ANTO","DENO_CS":"ANTONY","GRPT":3,"CIE":21,"TEL_VILLE":"01 46 66 09 90","TEL_FEU":"01 46 66 07 51","TEL_AUTO":"35 211","ADRESSE":"2 ave Armand Guillebeaud 92160 Antony","PC_CIE":"0","EM_GRPT":"0"}},
{"type":"Feature","geometry":{"type":"Point","coordinates":[2.49842342851826,48.881976499158]},"properties":{"CS":"VIMB","DENO_CS":"VILLEMOMBLE","GRPT":1,"CIE":24,"TEL_VILLE":"01 45 28 73 06","TEL_FEU":"01 45 28 73 05","TEL_AUTO":"35 242","ADRESSE":"1 rue des Haies 93250 Villemomble","PC_CIE":"0","EM_GRPT":"0"}},
{"type":"Feature","geometry":{"type":"Point","coordinates":[2.55947221584834,48.8302658181447]},"properties":{"CS":"NOIS","DENO_CS":"NOISY-LE-GRAND","GRPT":2,"CIE":15,"TEL_VILLE":"01 43 04 22 10","TEL_FEU":"01 43 04 20 18","TEL_AUTO":"35 152","ADRESSE":"1-5 ave Mdric 93160 Noisy-le-Grand","PC_CIE":"0","EM_GRPT":"0"}},
{"type":"Feature","geometry":{"type":"Point","coordinates":[2.38857387225866,48.8116137709976]},"properties":{"CS":"IVRY","DENO_CS":"IVRY","GRPT":2,"CIE":2,"TEL_VILLE":"01 46 72 64 34","TEL_FEU":"01 46 72 31 54","TEL_AUTO":"35 021","ADRESSE":"1 place de l'Htel de Ville 94200 Ivry","PC_CIE":"0","EM_GRPT":"0"}},
{"type":"Feature","geometry":{"type":"Point","coordinates":[2.3873502785916,48.836483926516]},"properties":{"CS":"NATI","DENO_CS":"NATIVITE","GRPT":2,"CIE":1,"TEL_VILLE":"01 43 43 54 65","TEL_FEU":"01 43 43 53 75","TEL_AUTO":"35 011","ADRESSE":"5 place Lachambaudie 75012 Paris","PC_CIE":"0","EM_GRPT":"0"}},
{"type":"Feature","geometry":{"type":"Point","coordinates":[2.37439160078957,48.8223749239366]},"properties":{"CS":"MASS","DENO_CS":"MASSENA","GRPT":2,"CIE":2,"TEL_VILLE":"01 45 83 82 66","TEL_FEU":"01 45 83 80 80","TEL_AUTO":"35 020","ADRESSE":"37 bld Massna 75013 Paris","PC_CIE":"1","EM_GRPT":"1"}},
{"type":"Feature","geometry":{"type":"Point","coordinates":[2.45285977055389,48.8466625773539]},"properties":{"CS":"VINC","DENO_CS":"VINCENNES","GRPT":2,"CIE":1,"TEL_VILLE":"01 58 64 13 28","TEL_FEU":"01 43 28 04 86","TEL_AUTO":"35 012","ADRESSE":"2 rue de l'Eglise 94300 Vincennes","PC_CIE":"0","EM_GRPT":"0"}},
{"type":"Feature","geometry":{"type":"Point","coordinates":[2.48212250176985,48.8408623609641]},"properties":{"CS":"NOGT","DENO_CS":"NOGENT-SUR-MARNE","GRPT":2,"CIE":15,"TEL_VILLE":"01 55 85 15 28","TEL_FEU":"01 48 73 07 58","TEL_AUTO":"35 151","ADRESSE":"Bld de Strasbourg 94130 Nogent/Marne","PC_CIE":"2","EM_GRPT":"2"}},
{"type":"Feature","geometry":{"type":"Point","coordinates":[2.53164303398371,48.8084898612268]},"properties":{"CS":"CHPY","DENO_CS":"CHAMPIGNY","GRPT":2,"CIE":15,"TEL_VILLE":"01 48 81 55 45","TEL_FEU":"01 48 81 03 97","TEL_AUTO":"35 150","ADRESSE":"16 rue de Dunkerque 94500 Champigny/Marne","PC_CIE":"1","EM_GRPT":"0"}},
{"type":"Feature","geometry":{"type":"Point","coordinates":[2.50280903892037,48.7970379715698]},"properties":{"CS":"STMR","DENO_CS":"SAINT-MAUR","GRPT":2,"CIE":23,"TEL_VILLE":"01 48 83 87 46","TEL_FEU":"01 48 83 14 39","TEL_AUTO":"35 230","ADRESSE":"17 ave Louis Blanc 94100 Saint-Maur","PC_CIE":"1","EM_GRPT":"0"}},
{"type":"Feature","geometry":{"type":"Point","coordinates":[2.46581284469028,48.8186053307138]},"properties":{"CS":"JOIN","DENO_CS":"JOINVILLE","GRPT":2,"CIE":17,"TEL_VILLE":"01 48 83 34 90","TEL_FEU":"01 48 83 25 40","TEL_AUTO":"35 171","ADRESSE":"16 rue de Paris 94340 Joinville-le-Pont","PC_CIE":"0","EM_GRPT":"0"}},
{"type":"Feature","geometry":{"type":"Point","coordinates":[2.43034401929303,48.8002924422322]},"properties":{"CS":"MALF","DENO_CS":"MAISON-ALFORT","GRPT":2,"CIE":17,"TEL_VILLE":"01 43 78 32 04","TEL_FEU":"01 43 78 28 10","TEL_AUTO":"35 172","ADRESSE":"4-6 rue Pasteur 94700 Maisons-Alfort","PC_CIE":"0","EM_GRPT":"0"}},
{"type":"Feature","geometry":{"type":"Point","coordinates":[2.45882466921423,48.7864781814557]},"properties":{"CS":"CRET","DENO_CS":"CRETEIL","GRPT":2,"CIE":17,"TEL_VILLE":"01 49 80 28 17","TEL_FEU":"01 49 80 28 18","TEL_AUTO":"35 170","ADRESSE":"10-18 rue de l'Orme St-Simon 94000  Crteil","PC_CIE":"1","EM_GRPT":"0"}},
{"type":"Feature","geometry":{"type":"Point","coordinates":[2.3533820138154,48.7919068727995]},"properties":{"CS":"VIJF","DENO_CS":"VILLEJUIF","GRPT":2,"CIE":22,"TEL_VILLE":"01 47 26 18 19","TEL_FEU":"01 47 26 39 60","TEL_AUTO":"35 222","ADRESSE":"46-48 ave de Verdun 94800 Villejuif","PC_CIE":"0","EM_GRPT":"0"}},
{"type":"Feature","geometry":{"type":"Point","coordinates":[2.36757798300726,48.7600415899873]},"properties":{"CS":"RUNG","DENO_CS":"RUNGIS","GRPT":2,"CIE":22,"TEL_VILLE":"01 46 86 90 10","TEL_FEU":"01 47 26 90 20","TEL_AUTO":"35 220","ADRESSE":"382 ave de Stalingrad 94669 Chevilly-Larue","PC_CIE":"1","EM_GRPT":"0"}},
{"type":"Feature","geometry":{"type":"Point","coordinates":[2.41047016690969,48.7543292869202]},"properties":{"CS":"CHOI","DENO_CS":"CHOISY-LE-ROI","GRPT":2,"CIE":22,"TEL_VILLE":"01 48 52 33 40","TEL_FEU":"01 48 84 09 47","TEL_AUTO":"35 221","ADRESSE":"56-58 rue Jules Vals 94600 Choisy-le-Roi","PC_CIE":"0","EM_GRPT":"0"}},
{"type":"Feature","geometry":{"type":"Point","coordinates":[2.45287732397364,48.7453519673546]},"properties":{"CS":"VISG","DENO_CS":"VILLENEUVE-ST-GEORGES","GRPT":2,"CIE":17,"TEL_VILLE":"01 43 89 03 91","TEL_FEU":"01 43 89 02 49","TEL_AUTO":"35 173","ADRESSE":"97 ave Anatole France 94190 Villeneuve-St-Georges","PC_CIE":"0","EM_GRPT":"0"}},
{"type":"Feature","geometry":{"type":"Point","coordinates":[2.54023431799556,48.7119742177834]},"properties":{"CS":"VILC","DENO_CS":"VILLECRESNES","GRPT":2,"CIE":23,"TEL_VILLE":"01 45 98 90 33","TEL_FEU":"01 45 99 08 74","TEL_AUTO":"35 232","ADRESSE":"69 rue des Mandres 94440 Villecresnes","PC_CIE":"0","EM_GRPT":"0"}},
{"type":"Feature","geometry":{"type":"Point","coordinates":[2.30163575674256,48.9061868695832]},"properties":{"CS":"CCHY","DENO_CS":"CLICHY","GRPT":1,"CIE":9,"TEL_VILLE":"01 47 37 14 74","TEL_FEU":"01 47 37 11 30","TEL_AUTO":"35 092","ADRESSE":"137 Bld Jean-Jaures 92110 Clichy sur Seine","PC_CIE":"0","EM_GRPT":"0"}},
{"type":"Feature","geometry":{"type":"Point","coordinates":[2.53536722558297,48.7621745582464]},"properties":{"CS":"SUCY","DENO_CS":"SUCY-EN-BRIE","GRPT":2,"CIE":23,"TEL_VILLE":"01 45 90 11 40","TEL_FEU":"01 45 90 21 32","TEL_AUTO":"35 231","ADRESSE":"48 Route de la Queue en Brie 94370 SUCY EN BRIE","PC_CIE":"0","EM_GRPT":"0"}},
{"type":"Feature","geometry":{"type":"Point","coordinates":[2.23489404570836,48.8775341252011]},"properties":{"CS":"PUTX","DENO_CS":"PUTEAUX","GRPT":3,"CIE":28,"TEL_VILLE":"01 58 47 29 28","TEL_FEU":"01 45 06 01 20","TEL_AUTO":"35 280","ADRESSE":"106 rue de Verdun 92800 Puteaux","PC_CIE":"1","EM_GRPT":"0"}},
{"type":"Feature","geometry":{"type":"Point","coordinates":[2.38969548304495,48.7876136196088]},"properties":{"CS":"0","DENO_CS":"","GRPT":0,"CIE":0,"TEL_VILLE":"","TEL_FEU":"","TEL_AUTO":"","ADRESSE":"","PC_CIE":"","EM_GRPT":""}}
]}
