[
  {"type":"header","version":"4.9.0.1","comment":"Export to JSON plugin for PHPMyAdmin"},
  {"type":"database","name":"apijobase"},
  {"type":"table","name":"sites_evenements","database":"apijobase","data":
  [
    {"id":"1","site":"Stade de France","commune":"Saint-Denis","lat":"48.9244592","lng":"2.3579758"},
    {"id":"2","site":"Village olympique de Saint-Denis","commune":"Saint-Ouen","lat":"48.9210829","lng":"2.331597"},
    {"id":"3","site":"Centre nautique","commune":"Saint-Denis","lat":"48.9268234","lng":"2.3518699"},
    {"id":"4","site":"Stand de tir du Bourget","commune":"Le Bourget","lat":"99","lng":"99"},
    {"id":"5","site":"Parc des expositions du Bourget","commune":"Le Bourget","lat":"48.9441442","lng":"2.4278287"},
    {"id":"6","site":"Champ-de-Mars","commune":"Paris","lat":"48.8556475","lng":"2.2964417"},
    {"id":"7","site":"Tour Eiffel","commune":"Paris","lat":"48.8583701","lng":"2.2922926"},
    {"id":"8","site":"Champs-Élysées","commune":"Paris","lat":"48.868308","lng":"2.304399"},
    {"id":"9","site":"Grand Palais","commune":"Paris","lat":"48.8661091","lng":"2.3102657"},
    {"id":"10","site":"Grand Palais éphémère","commune":"Paris","lat":"48.8661091","lng":"2.3102657"},
    {"id":"11","site":"Esplanade des Invalides","commune":"Paris","lat":"48.8558494","lng":"2.3103798"},
    {"id":"12","site":"Parc des expositions de la porte de Versailles","commune":"Paris","lat":"48.8326721","lng":"2.2843718"},
    {"id":"13","site":"Parc des Princes","commune":"Paris","lat":"48.8414356","lng":"2.25086"},
    {"id":"14","site":"Place de la Concorde","commune":"Paris","lat":"48.8656331","lng":"2.319047"},
    {"id":"15","site":"Stade Jean-Bouin","commune":"Paris","lat":"48.84332","lng":"2.2507473"},
    {"id":"16","site":"Stade Roland-Garros","commune":"Paris","lat":"48.8473435","lng":"2.2487285"},
    {"id":"17","site":"Palais omnisports de Paris-Bercy","commune":"Paris","lat":"48.8385379","lng":"2.3763955"},
    {"id":"18","site":"Paris Arena II","commune":"Paris","lat":"99","lng":"99"},
    {"id":"19","site":"Paris La Défense Arena","commune":"Nanterre","lat":"48.8966757","lng":"2.227118"},
    {"id":"20","site":"Stade olympique Yves-du-Manoir","commune":"Colombes","lat":"48.9292771","lng":"2.245583"},
    {"id":"21","site":"Zénith de Paris","commune":"Paris","lat":"48.8942046","lng":"2.3910398"},
    {"id":"22","site":"Base nautique de Vaires-sur-Marne","commune":"Vaires-sur-Marne","lat":"48.8640571","lng":"2.6335413"},
    {"id":"23","site":"Château de Versailles","commune":"Versailles","lat":"48.7932321","lng":"2.0999111"},
    {"id":"24","site":"Vélodrome national","commune":"Saint-Quentin-en-Yvelines","lat":"48.7880239","lng":"2.0326554"},
    {"id":"25","site":"Colline d'Élancourt","commune":"Élancourt","lat":"48.7883321","lng":"1.9593012"},
    {"id":"26","site":"Golf national","commune":"Saint-Quentin-en-Yvelines","lat":"48.750536","lng":"2.0757523"}
  ]
  }
]
